{
"type": "FeatureCollection",
"crs": { "type": "name", "properties": { "name": "urn:ogc:def:crs:OGC:1.3:CRS84" } },
                                                                                                                                  
"features": [
{ "type": "Feature", "properties": { "NOME": "UNIFESP", "CURSO": "Engenharias Petróleo e Recursos Renováveis, Ambiental e Portuária, Ciência e Tecnologia do Mar", "TIPO": "Bacharel", "VAGAS": "100", "ANO": "2012", "FONTE": "E-MEC", "Cores": "#FF0000", "Símbolo": "circle" }, "geometry": { "type": "Point", "coordinates": [ -46.330547299999978, -23.946880399999941, 0.0 ] } },
{ "type": "Feature", "properties": { "NOME": "FATEC SANTOS", "CURSO": "Logística de Transporter", "TIPO": "Tecnólogo", "VAGAS": "40", "ANO": "2002, mas em extinção.", "FONTE": "E-MEC", "Cores": "#FFD700", "Símbolo": "circle" }, "geometry": { "type": "Point", "coordinates": [ -46.311492899999962, -23.98092, 0.0 ] } },
{ "type": "Feature", "properties": { "NOME": "FATEC PRAIA GRANDE", "CURSO": "Processos Químicos", "TIPO": "Tecnólogo", "VAGAS": "160", "ANO": "2011", "FONTE": "E-MEC", "Cores": "#FFD700", "Símbolo": "circle" }, "geometry": { "type": "Point", "coordinates": [ -46.412172299999952, -24.004993299999967, 0.0 ] } },
{ "type": "Feature", "properties": { "NOME": "IFSP CUBATÃO", "CURSO": "Gestão de Turismo", "TIPO": "Tecnólogo", "VAGAS": "40", "ANO": "2010", "FONTE": "E-MEC", "Cores": "#FFD700", "Símbolo": "circle" }, "geometry": { "type": "Point", "coordinates": [ -46.412601499999937, -23.928209799999934, 0.0 ] } },
{ "type": "Feature", "properties": { "NOME": "UNESP", "CURSO": "Ciências Biológicas", "TIPO": "Bacharel", "VAGAS": "40", "ANO": "2002", "FONTE": "E-MEC", "Cores": "#FF0000", "Símbolo": "circle" }, "geometry": { "type": "Point", "coordinates": [ -46.394577, -23.970960099999957, 0.0 ] } },
{ "type": "Feature", "properties": { "NOME": "FATEC SÃO SEBASTIÃO", "CURSO": "Gestão Portuária", "TIPO": "Tecnólogo", "VAGAS": "40", "ANO": "2013", "FONTE": "E-MEC", "Cores": "#FFD700", "Símbolo": "circle" }, "geometry": { "type": "Point", "coordinates": [ -45.402932199999952, -23.793159299999957, 0.0 ] } },
{ "type": "Feature", "properties": { "NOME": "IFSP CARAGUATATUBA", "CURSO": "Processos Gerenciais", "TIPO": "Tecnólogo", "VAGAS": "40", "ANO": "2011", "FONTE": "E-MEC", "Cores": "#FFD700", "Símbolo": "circle" }, "geometry": { "type": "Point", "coordinates": [ -45.425827499999968, -23.636720399999945, 0.0 ] } },
{ "type": "Feature", "properties": { "NOME": "UNIFESP", "CURSO": "Análise Ambiental Integrada", "TIPO": "Pós Graduação", "VAGAS": "100", "ANO": "2012", "FONTE": "E-MEC", "Cores": "#9400D3", "Símbolo": "circle" }, "geometry": { "type": "Point", "coordinates": [ -46.330547299999978, -23.946880399999941, 0.0 ] } },
{ "type": "Feature", "properties": { "NOME": "FATEC PRAIA GRANDE", "CURSO": "Comércio Exterior", "TIPO": "Tecnólogo", "VAGAS": "160", "ANO": "2009", "FONTE": "E-MEC", "Cores": "#FFD700", "Símbolo": "circle" }, "geometry": { "type": "Point", "coordinates": [ -46.412172299999952, -24.004993299999967, 0.0 ] } },
{ "type": "Feature", "properties": { "NOME": "FATEC SANTOS", "CURSO": "Logística", "TIPO": "Tecnólogo", "VAGAS": "80", "ANO": "2010", "FONTE": "E-MEC", "Cores": "#FFD700", "Símbolo": "circle" }, "geometry": { "type": "Point", "coordinates": [ -46.311492899999962, -23.98092, 0.0 ] } },
{ "type": "Feature", "properties": { "NOME": "FATEC SANTOS", "CURSO": "Gestão Portuária", "TIPO": "Tecnólogo", "VAGAS": "160", "ANO": "2013", "FONTE": "E-MEC", "Cores": "#FFD700", "Símbolo": "circle" }, "geometry": { "type": "Point", "coordinates": [ -46.311492899999962, -23.98092, 0.0 ] } },
{ "type": "Feature", "properties": { "NOME": "UNESP", "CURSO": "Biodiversidade Aquática", "TIPO": "Pós Graduação", "VAGAS": "20", "ANO": "2002", "FONTE": "E-MEC", "Cores": "#9400D3", "Símbolo": "circle" }, "geometry": { "type": "Point", "coordinates": [ -46.394577, -23.970960099999957, 0.0 ] } },
{ "type": "Feature", "properties": { "NOME": "FATEC SÃO SEBASTIÃO", "CURSO": "Processos Gerenciais", "TIPO": "Tecnólogo", "VAGAS": "80", "ANO": "2009", "FONTE": "E-MEC", "Cores": "#FFD700", "Símbolo": "circle" }, "geometry": { "type": "Point", "coordinates": [ -45.402932199999952, -23.793159299999957, 0.0 ] } },
{ "type": "Feature", "properties": { "NOME": "UNIFESP", "CURSO": "Serviço Social", "TIPO": "Bacharel", "VAGAS": "50", "ANO": "2009", "FONTE": "E-MEC", "Cores": "#FF0000", "Símbolo": "circle" }, "geometry": { "type": "Point", "coordinates": [ -46.330547299999978, -23.946880399999941, 0.0 ] } }
]
}
