{
"type": "FeatureCollection",
"crs": { "type": "name", "properties": { "name": "urn:ogc:def:crs:OGC:1.3:CRS84" } },
                                                                                                                                  
"features": [
{ "type": "Feature", "properties": { "Id": 0, "NOME": "Enseada - Vista Linda", "MUNICIPIO": "Bertioga", "ORGANIZADO": "Instituto POLIS - 2012", "Color": "#DB7093", "Stroke": "1", "Cores": "#DB7093", "Opacity": "1", "Opacidade": "1" }, "geometry": { "type": "Point", "coordinates": [ -46.075795644128881, -23.815620320564424 ] } },
{ "type": "Feature", "properties": { "Id": 0, "NOME": "Enseada - R. Rafael Constabili", "MUNICIPIO": "Bertioga", "ORGANIZADO": "Instituto POLIS - 2012", "Color": "#DB7093", "Stroke": "1", "Cores": "#DB7093", "Opacity": "1", "Opacidade": "1" }, "geometry": { "type": "Point", "coordinates": [ -46.134537094600624, -23.85372978635759 ] } },
{ "type": "Feature", "properties": { "Id": 0, "NOME": "Enseada - Col. do SESC", "MUNICIPIO": "Bertioga", "ORGANIZADO": "Instituto POLIS - 2012", "Color": "#DB7093", "Stroke": "1", "Cores": "#DB7093", "Opacity": "1", "Opacidade": "1" }, "geometry": { "type": "Point", "coordinates": [ -46.113169932100803, -23.831889494511486 ] } },
{ "type": "Feature", "properties": { "Id": 0, "NOME": "Enseada - Indaiá", "MUNICIPIO": "Bertioga", "ORGANIZADO": "Instituto POLIS - 2012", "Color": "#DB7093", "Stroke": "1", "Cores": "#DB7093", "Opacity": "1", "Opacidade": "1" }, "geometry": { "type": "Point", "coordinates": [ -46.048190985975317, -23.817235421655162 ] } },
{ "type": "Feature", "properties": { "Id": 0, "NOME": "São Lourenço - R. Dois", "MUNICIPIO": "Bertioga", "ORGANIZADO": "Instituto POLIS - 2012", "Color": "#DB7093", "Stroke": "1", "Cores": "#DB7093", "Opacity": "1", "Opacidade": "1" }, "geometry": { "type": "Point", "coordinates": [ -46.020233175465407, -23.802390535227104 ] } },
{ "type": "Feature", "properties": { "Id": 0, "NOME": "São Lourenço - junto ao morro", "MUNICIPIO": "Bertioga", "ORGANIZADO": "Instituto POLIS - 2012", "Color": "#DB7093", "Stroke": "1", "Cores": "#DB7093", "Opacity": "1", "Opacidade": "1" }, "geometry": { "type": "Point", "coordinates": [ -46.002745790228992, -23.798883170979959 ] } },
{ "type": "Feature", "properties": { "Id": 0, "NOME": "Guaratuba", "MUNICIPIO": "Bertioga", "ORGANIZADO": "Instituto POLIS - 2012", "Color": "#DB7093", "Stroke": "1", "Cores": "#DB7093", "Opacity": "1", "Opacidade": "1" }, "geometry": { "type": "Point", "coordinates": [ -45.917137752623098, -23.767086409145424 ] } },
{ "type": "Feature", "properties": { "Id": 0, "NOME": "Boracéia - Sul", "MUNICIPIO": "Bertioga", "ORGANIZADO": "Instituto POLIS - 2012", "Color": "#DB7093", "Stroke": "1", "Cores": "#DB7093", "Opacity": "1", "Opacidade": "1" }, "geometry": { "type": "Point", "coordinates": [ -45.860599144106892, -23.757372699058312 ] } },
{ "type": "Feature", "properties": { "Id": 0, "NOME": "Boracéia - Col. Marista", "MUNICIPIO": "Bertioga", "ORGANIZADO": "Instituto POLIS - 2012", "Color": "#DB7093", "Stroke": "1", "Cores": "#DB7093", "Opacity": "1", "Opacidade": "1" }, "geometry": { "type": "Point", "coordinates": [ -45.848274982459984, -23.757392688517072 ] } },
{ "type": "Feature", "properties": { "Id": 0, "NOME": "Boaracéia - Norte", "MUNICIPIO": "São Sebastião", "ORGANIZADO": "Instituto POLIS - 2012", "Color": "#DB7093", "Stroke": "1", "Cores": "#DB7093", "Opacity": "1", "Opacidade": "1" }, "geometry": { "type": "Point", "coordinates": [ -45.803118854983431, -23.760635871859332 ] } },
{ "type": "Feature", "properties": { "Id": 0, "NOME": "Boracéia - R. Cubatão", "MUNICIPIO": "São Sebastião", "ORGANIZADO": "Instituto POLIS - 2012", "Color": "#DB7093", "Stroke": "1", "Cores": "#DB7093", "Opacity": "1", "Opacidade": "1" }, "geometry": { "type": "Point", "coordinates": [ -45.838844379854329, -23.756503017825892 ] } },
{ "type": "Feature", "properties": { "Id": 0, "NOME": "Juréia do norte", "MUNICIPIO": "São Sebastião", "ORGANIZADO": "Instituto POLIS - 2012", "Color": "#DB7093", "Stroke": "1", "Cores": "#DB7093", "Opacity": "1", "Opacidade": "1" }, "geometry": { "type": "Point", "coordinates": [ -45.791236084684151, -23.766360820627014 ] } },
{ "type": "Feature", "properties": { "Id": 0, "NOME": "Engenho", "MUNICIPIO": "São Sebastião", "ORGANIZADO": "Instituto POLIS - 2012", "Color": "#DB7093", "Stroke": "1", "Cores": "#DB7093", "Opacity": "1", "Opacidade": "1" }, "geometry": { "type": "Point", "coordinates": [ -45.784298490896099, -23.765535902562583 ] } },
{ "type": "Feature", "properties": { "Id": 0, "NOME": "Una", "MUNICIPIO": "São Sebastião", "ORGANIZADO": "Instituto POLIS - 2012", "Color": "#DB7093", "Stroke": "1", "Cores": "#DB7093", "Opacity": "1", "Opacidade": "1" }, "geometry": { "type": "Point", "coordinates": [ -45.767147054246898, -23.763041128225527 ] } },
{ "type": "Feature", "properties": { "Id": 0, "NOME": "Juqueí - R. Cristiana", "MUNICIPIO": "São Sebastião", "ORGANIZADO": "Instituto POLIS - 2012", "Color": "#DB7093", "Stroke": "1", "Cores": "#DB7093", "Opacity": "1", "Opacidade": "1" }, "geometry": { "type": "Point", "coordinates": [ -45.745985995308892, -23.767589671647976 ] } },
{ "type": "Feature", "properties": { "Id": 0, "NOME": "Juqueí - Trav. S. Faustino", "MUNICIPIO": "São Sebastião", "ORGANIZADO": "Instituto POLIS - 2012", "Color": "#DB7093", "Stroke": "1", "Cores": "#DB7093", "Opacity": "1", "Opacidade": "1" }, "geometry": { "type": "Point", "coordinates": [ -45.731969855598891, -23.768517034923381 ] } },
{ "type": "Feature", "properties": { "Id": 0, "NOME": "Preta", "MUNICIPIO": "São Sebastião", "ORGANIZADO": "Instituto POLIS - 2012", "Color": "#DB7093", "Stroke": "1", "Cores": "#DB7093", "Opacity": "1", "Opacidade": "1" }, "geometry": { "type": "Point", "coordinates": [ -45.715482777682553, -23.773469367416354 ] } },
{ "type": "Feature", "properties": { "Id": 0, "NOME": "Barra do Saí", "MUNICIPIO": "São Sebastião", "ORGANIZADO": "Instituto POLIS - 2012", "Color": "#DB7093", "Stroke": "1", "Cores": "#DB7093", "Opacity": "1", "Opacidade": "1" }, "geometry": { "type": "Point", "coordinates": [ -45.697566181054277, -23.773551335629548 ] } },
{ "type": "Feature", "properties": { "Id": 0, "NOME": "Baleia", "MUNICIPIO": "São Sebastião", "ORGANIZADO": "Instituto POLIS - 2012", "Color": "#DB7093", "Stroke": "1", "Cores": "#DB7093", "Opacity": "1", "Opacidade": "1" }, "geometry": { "type": "Point", "coordinates": [ -45.67637849693547, -23.773788971984168 ] } },
{ "type": "Feature", "properties": { "Id": 0, "NOME": "Camburi", "MUNICIPIO": "São Sebastião", "ORGANIZADO": "Instituto POLIS - 2012", "Color": "#DB7093", "Stroke": "1", "Cores": "#DB7093", "Opacity": "1", "Opacidade": "1" }, "geometry": { "type": "Point", "coordinates": [ -45.654431035773584, -23.777898341872973 ] } },
{ "type": "Feature", "properties": { "Id": 0, "NOME": "Camburizinho", "MUNICIPIO": "São Sebastião", "ORGANIZADO": "Instituto POLIS - 2012", "Color": "#DB7093", "Stroke": "1", "Cores": "#DB7093", "Opacity": "1", "Opacidade": "1" }, "geometry": { "type": "Point", "coordinates": [ -45.64570462006192, -23.777648307839542 ] } },
{ "type": "Feature", "properties": { "Id": 0, "NOME": "Boiçucanga", "MUNICIPIO": "São Sebastião", "ORGANIZADO": "Instituto POLIS - 2012", "Color": "#DB7093", "Stroke": "1", "Cores": "#DB7093", "Opacity": "1", "Opacidade": "1" }, "geometry": { "type": "Point", "coordinates": [ -45.629207333405589, -23.785441679552783 ] } },
{ "type": "Feature", "properties": { "Id": 0, "NOME": "Maresias", "MUNICIPIO": "São Sebastião", "ORGANIZADO": "Instituto POLIS - 2012", "Color": "#DB7093", "Stroke": "1", "Cores": "#DB7093", "Opacity": "1", "Opacidade": "1" }, "geometry": { "type": "Point", "coordinates": [ -45.574768001476194, -23.790953553018301 ] } },
{ "type": "Feature", "properties": { "Id": 0, "NOME": "Paúba", "MUNICIPIO": "São Sebastião", "ORGANIZADO": "Instituto POLIS - 2012", "Color": "#DB7093", "Stroke": "1", "Cores": "#DB7093", "Opacity": "1", "Opacidade": "1" }, "geometry": { "type": "Point", "coordinates": [ -45.551781200624141, -23.802847965539002 ] } },
{ "type": "Feature", "properties": { "Id": 0, "NOME": "Santiago", "MUNICIPIO": "São Sebastião", "ORGANIZADO": "Instituto POLIS - 2012", "Color": "#DB7093", "Stroke": "1", "Cores": "#DB7093", "Opacity": "1", "Opacidade": "1" }, "geometry": { "type": "Point", "coordinates": [ -45.540626636790762, -23.811518221784283 ] } },
{ "type": "Feature", "properties": { "Id": 0, "NOME": "Toque-Toque pequeno", "MUNICIPIO": "São Sebastião", "ORGANIZADO": "Instituto POLIS - 2012", "Color": "#DB7093", "Stroke": "1", "Cores": "#DB7093", "Opacity": "1", "Opacidade": "1" }, "geometry": { "type": "Point", "coordinates": [ -45.534399466596533, -23.818050850174078 ] } },
{ "type": "Feature", "properties": { "Id": 0, "NOME": "Toque-Toque grande", "MUNICIPIO": "São Sebastião", "ORGANIZADO": "Instituto POLIS - 2012", "Color": "#DB7093", "Stroke": "1", "Cores": "#DB7093", "Opacity": "1", "Opacidade": "1" }, "geometry": { "type": "Point", "coordinates": [ -45.510598338804698, -23.83433312078208 ] } },
{ "type": "Feature", "properties": { "Id": 0, "NOME": "Guaecá", "MUNICIPIO": "São Sebastião", "ORGANIZADO": "Instituto POLIS - 2012", "Color": "#DB7093", "Stroke": "1", "Cores": "#DB7093", "Opacity": "1", "Opacidade": "1" }, "geometry": { "type": "Point", "coordinates": [ -45.458042193131078, -23.821022068256433 ] } },
{ "type": "Feature", "properties": { "Id": 0, "NOME": "Baraqueçaba", "MUNICIPIO": "São Sebastião", "ORGANIZADO": "Instituto POLIS - 2012", "Color": "#DB7093", "Stroke": "1", "Cores": "#DB7093", "Opacity": "1", "Opacidade": "1" }, "geometry": { "type": "Point", "coordinates": [ -45.434034426513698, -23.827753915526301 ] } },
{ "type": "Feature", "properties": { "Id": 0, "NOME": "Grande", "MUNICIPIO": "São Sebastião", "ORGANIZADO": "Instituto POLIS - 2012", "Color": "#DB7093", "Stroke": "1", "Cores": "#DB7093", "Opacity": "1", "Opacidade": "1" }, "geometry": { "type": "Point", "coordinates": [ -45.414104192899309, -23.823417599574544 ] } },
{ "type": "Feature", "properties": { "Id": 0, "NOME": "Porto Grande", "MUNICIPIO": "São Sebastião", "ORGANIZADO": "Instituto POLIS - 2012", "Color": "#DB7093", "Stroke": "1", "Cores": "#DB7093", "Opacity": "1", "Opacidade": "1" }, "geometry": { "type": "Point", "coordinates": [ -45.398538228736399, -23.792569130638849 ] } },
{ "type": "Feature", "properties": { "Id": 0, "NOME": "Preta do Norte", "MUNICIPIO": "São Sebastião", "ORGANIZADO": "Instituto POLIS - 2012", "Color": "#DB7093", "Stroke": "1", "Cores": "#DB7093", "Opacity": "1", "Opacidade": "1" }, "geometry": { "type": "Point", "coordinates": [ -45.40866269069371, -23.820252325598382 ] } },
{ "type": "Feature", "properties": { "Id": 0, "NOME": "Deserta", "MUNICIPIO": "São Sebastião", "ORGANIZADO": "Instituto POLIS - 2012", "Color": "#DB7093", "Stroke": "1", "Cores": "#DB7093", "Opacity": "1", "Opacidade": "1" }, "geometry": { "type": "Point", "coordinates": [ -45.397683632561041, -23.784580688117821 ] } },
{ "type": "Feature", "properties": { "Id": 0, "NOME": "Pontal da Cruz", "MUNICIPIO": "São Sebastião", "ORGANIZADO": "Instituto POLIS - 2012", "Color": "#DB7093", "Stroke": "1", "Cores": "#DB7093", "Opacity": "1", "Opacidade": "1" }, "geometry": { "type": "Point", "coordinates": [ -45.399445773983672, -23.77695855826758 ] } },
{ "type": "Feature", "properties": { "Id": 0, "NOME": "Arrastão", "MUNICIPIO": "São Sebastião", "ORGANIZADO": "Instituto POLIS - 2012", "Color": "#DB7093", "Stroke": "1", "Cores": "#DB7093", "Opacity": "1", "Opacidade": "1" }, "geometry": { "type": "Point", "coordinates": [ -45.402672934970525, -23.770826235578756 ] } },
{ "type": "Feature", "properties": { "Id": 0, "NOME": "São Francisco", "MUNICIPIO": "São Sebastião", "ORGANIZADO": "Instituto POLIS - 2012", "Color": "#DB7093", "Stroke": "1", "Cores": "#DB7093", "Opacity": "1", "Opacidade": "1" }, "geometry": { "type": "Point", "coordinates": [ -45.410592013097954, -23.760200508415892 ] } },
{ "type": "Feature", "properties": { "Id": 0, "NOME": "Cigarras", "MUNICIPIO": "São Sebastião", "ORGANIZADO": "Instituto POLIS - 2012", "Color": "#DB7093", "Stroke": "1", "Cores": "#DB7093", "Opacity": "1", "Opacidade": "1" }, "geometry": { "type": "Point", "coordinates": [ -45.401086010422389, -23.729605654163858 ] } },
{ "type": "Feature", "properties": { "Id": 0, "NOME": "Prainha", "MUNICIPIO": "São Sebastião", "ORGANIZADO": "Instituto POLIS - 2012", "Color": "#DB7093", "Stroke": "1", "Cores": "#DB7093", "Opacity": "1", "Opacidade": "1" }, "geometry": { "type": "Point", "coordinates": [ -45.411616256026541, -23.724648934280239 ] } },
{ "type": "Feature", "properties": { "Id": 0, "NOME": "Porto Novo", "MUNICIPIO": "Caraguatatuba", "ORGANIZADO": "Instituto POLIS - 2012", "Color": "#DB7093", "Stroke": "1", "Cores": "#DB7093", "Opacity": "1", "Opacidade": "1" }, "geometry": { "type": "Point", "coordinates": [ -45.430920886468392, -23.695007049237876 ] } },
{ "type": "Feature", "properties": { "Id": 0, "NOME": "Palmeiras", "MUNICIPIO": "Caraguatatuba", "ORGANIZADO": "Instituto POLIS - 2012", "Color": "#DB7093", "Stroke": "1", "Cores": "#DB7093", "Opacity": "1", "Opacidade": "1" }, "geometry": { "type": "Point", "coordinates": [ -45.43147842945519, -23.667223452146452 ] } },
{ "type": "Feature", "properties": { "Id": 0, "NOME": "Pan Brasil", "MUNICIPIO": "Caraguatatuba", "ORGANIZADO": "Instituto POLIS - 2012", "Color": "#DB7093", "Stroke": "1", "Cores": "#DB7093", "Opacity": "1", "Opacidade": "1" }, "geometry": { "type": "Point", "coordinates": [ -45.424262256517828, -23.642149816255948 ] } },
{ "type": "Feature", "properties": { "Id": 0, "NOME": "Indaiá", "MUNICIPIO": "Caraguatatuba", "ORGANIZADO": "Instituto POLIS - 2012", "Color": "#DB7093", "Stroke": "1", "Cores": "#DB7093", "Opacity": "1", "Opacidade": "1" }, "geometry": { "type": "Point", "coordinates": [ -45.419041651652691, -23.632007065030507 ] } },
{ "type": "Feature", "properties": { "Id": 0, "NOME": "Centro", "MUNICIPIO": "Caraguatatuba", "ORGANIZADO": "Instituto POLIS - 2012", "Color": "#DB7093", "Stroke": "1", "Cores": "#DB7093", "Opacity": "1", "Opacidade": "1" }, "geometry": { "type": "Point", "coordinates": [ -45.407019749017593, -23.62397324442675 ] } },
{ "type": "Feature", "properties": { "Id": 0, "NOME": "Prainha", "MUNICIPIO": "Caraguatatuba", "ORGANIZADO": "Instituto POLIS - 2012", "Color": "#DB7093", "Stroke": "1", "Cores": "#DB7093", "Opacity": "1", "Opacidade": "1" }, "geometry": { "type": "Point", "coordinates": [ -45.39180524204879, -23.632078242089381 ] } },
{ "type": "Feature", "properties": { "Id": 0, "NOME": "Martin de Sá", "MUNICIPIO": "Caraguatatuba", "ORGANIZADO": "Instituto POLIS - 2012", "Color": "#DB7093", "Stroke": "1", "Cores": "#DB7093", "Opacity": "1", "Opacidade": "1" }, "geometry": { "type": "Point", "coordinates": [ -45.382063194812261, -23.627024046921015 ] } },
{ "type": "Feature", "properties": { "Id": 0, "NOME": "Lagoa Azul", "MUNICIPIO": "Caraguatatuba", "ORGANIZADO": "Instituto POLIS - 2012", "Color": "#DB7093", "Stroke": "1", "Cores": "#DB7093", "Opacity": "1", "Opacidade": "1" }, "geometry": { "type": "Point", "coordinates": [ -45.360008070329862, -23.624388166480053 ] } },
{ "type": "Feature", "properties": { "Id": 0, "NOME": "Capricórnio", "MUNICIPIO": "Caraguatatuba", "ORGANIZADO": "Instituto POLIS - 2012", "Color": "#DB7093", "Stroke": "1", "Cores": "#DB7093", "Opacity": "1", "Opacidade": "1" }, "geometry": { "type": "Point", "coordinates": [ -45.35121017769228, -23.607977842388372 ] } },
{ "type": "Feature", "properties": { "Id": 0, "NOME": "Massaguaçu - M.H. Carvalho", "MUNICIPIO": "Caraguatatuba", "ORGANIZADO": "Instituto POLIS - 2012", "Color": "#DB7093", "Stroke": "1", "Cores": "#DB7093", "Opacity": "1", "Opacidade": "1" }, "geometry": { "type": "Point", "coordinates": [ -45.333327090821541, -23.587105661733279 ] } },
{ "type": "Feature", "properties": { "Id": 0, "NOME": "Massaguaçu - M. Carlota", "MUNICIPIO": "Caraguatatuba", "ORGANIZADO": "Instituto POLIS - 2012", "Color": "#DB7093", "Stroke": "1", "Cores": "#DB7093", "Opacity": "1", "Opacidade": "1" }, "geometry": { "type": "Point", "coordinates": [ -45.323909572533864, -23.579955870924799 ] } },
{ "type": "Feature", "properties": { "Id": 0, "NOME": "Cocanha", "MUNICIPIO": "Caraguatatuba", "ORGANIZADO": "Instituto POLIS - 2012", "Color": "#DB7093", "Stroke": "1", "Cores": "#DB7093", "Opacity": "1", "Opacidade": "1" }, "geometry": { "type": "Point", "coordinates": [ -45.317745579087124, -23.577578690794553 ] } },
{ "type": "Feature", "properties": { "Id": 0, "NOME": "Mocooca", "MUNICIPIO": "Caraguatatuba", "ORGANIZADO": "Instituto POLIS - 2012", "Color": "#DB7093", "Stroke": "1", "Cores": "#DB7093", "Opacity": "1", "Opacidade": "1" }, "geometry": { "type": "Point", "coordinates": [ -45.300556735271563, -23.572833064272739 ] } },
{ "type": "Feature", "properties": { "Id": 0, "NOME": "Tabatinga - Gaivotas", "MUNICIPIO": "Caraguatatuba", "ORGANIZADO": "Instituto POLIS - 2012", "Color": "#DB7093", "Stroke": "1", "Cores": "#DB7093", "Opacity": "1", "Opacidade": "1" }, "geometry": { "type": "Point", "coordinates": [ -45.289858770264367, -23.571658426083488 ] } },
{ "type": "Feature", "properties": { "Id": 0, "NOME": "Tabatinga - 200m R. Tabatinga", "MUNICIPIO": "Caraguatatuba", "ORGANIZADO": "Instituto POLIS - 2012", "Color": "#DB7093", "Stroke": "1", "Cores": "#DB7093", "Opacity": "1", "Opacidade": "1" }, "geometry": { "type": "Point", "coordinates": [ -45.281435388068303, -23.57316760107587 ] } },
{ "type": "Feature", "properties": { "Id": 0, "NOME": "Curral", "MUNICIPIO": "Ilhabela", "ORGANIZADO": "Instituto POLIS - 2012", "Color": "#DB7093", "Stroke": "1", "Cores": "#DB7093", "Opacity": "1", "Opacidade": "1" }, "geometry": { "type": "Point", "coordinates": [ -45.434094868965232, -23.869927897512184 ] } },
{ "type": "Feature", "properties": { "Id": 0, "NOME": "Portinho", "MUNICIPIO": "Ilhabela", "ORGANIZADO": "Instituto POLIS - 2012", "Color": "#DB7093", "Stroke": "1", "Cores": "#DB7093", "Opacity": "1", "Opacidade": "1" }, "geometry": { "type": "Point", "coordinates": [ -45.405946722590471, -23.843477856867356 ] } },
{ "type": "Feature", "properties": { "Id": 0, "NOME": "Feiticeira", "MUNICIPIO": "Ilhabela", "ORGANIZADO": "Instituto POLIS - 2012", "Color": "#DB7093", "Stroke": "1", "Cores": "#DB7093", "Opacity": "1", "Opacidade": "1" }, "geometry": { "type": "Point", "coordinates": [ -45.412587841711648, -23.848478811923346 ] } },
{ "type": "Feature", "properties": { "Id": 0, "NOME": "Grande", "MUNICIPIO": "Ilhabela", "ORGANIZADO": "Instituto POLIS - 2012", "Color": "#DB7093", "Stroke": "1", "Cores": "#DB7093", "Opacity": "1", "Opacidade": "1" }, "geometry": { "type": "Point", "coordinates": [ -45.415733162688397, -23.857073650226749 ] } },
{ "type": "Feature", "properties": { "Id": 0, "NOME": "Ilha das Cabras", "MUNICIPIO": "Ilhabela", "ORGANIZADO": "Instituto POLIS - 2012", "Color": "#DB7093", "Stroke": "1", "Cores": "#DB7093", "Opacity": "1", "Opacidade": "1" }, "geometry": { "type": "Point", "coordinates": [ -45.390711112239579, -23.831329191935087 ] } },
{ "type": "Feature", "properties": { "Id": 0, "NOME": "Perequê", "MUNICIPIO": "Ilhabela", "ORGANIZADO": "Instituto POLIS - 2012", "Color": "#DB7093", "Stroke": "1", "Cores": "#DB7093", "Opacity": "1", "Opacidade": "1" }, "geometry": { "type": "Point", "coordinates": [ -45.370014104100747, -23.815965911078052 ] } },
{ "type": "Feature", "properties": { "Id": 0, "NOME": "Itaguaçu", "MUNICIPIO": "Ilhabela", "ORGANIZADO": "Instituto POLIS - 2012", "Color": "#DB7093", "Stroke": "1", "Cores": "#DB7093", "Opacity": "1", "Opacidade": "1" }, "geometry": { "type": "Point", "coordinates": [ -45.364518122491845, -23.801281561332218 ] } },
{ "type": "Feature", "properties": { "Id": 0, "NOME": "Serra do Capeta", "MUNICIPIO": "Ilhabela", "ORGANIZADO": "Instituto POLIS - 2012", "Color": "#DB7093", "Stroke": "1", "Cores": "#DB7093", "Opacity": "1", "Opacidade": "1" }, "geometry": { "type": "Point", "coordinates": [ -45.357847871676853, -23.784090374921909 ] } },
{ "type": "Feature", "properties": { "Id": 0, "NOME": "Viana", "MUNICIPIO": "Ilhabela", "ORGANIZADO": "Instituto POLIS - 2012", "Color": "#DB7093", "Stroke": "1", "Cores": "#DB7093", "Opacity": "1", "Opacidade": "1" }, "geometry": { "type": "Point", "coordinates": [ -45.349608976431959, -23.76224220868772 ] } },
{ "type": "Feature", "properties": { "Id": 0, "NOME": "Siriuba", "MUNICIPIO": "Ilhabela", "ORGANIZADO": "Instituto POLIS - 2012", "Color": "#DB7093", "Stroke": "1", "Cores": "#DB7093", "Opacity": "1", "Opacidade": "1" }, "geometry": { "type": "Point", "coordinates": [ -45.349197500938814, -23.753998172312045 ] } },
{ "type": "Feature", "properties": { "Id": 0, "NOME": "Sino", "MUNICIPIO": "Ilhabela", "ORGANIZADO": "Instituto POLIS - 2012", "Color": "#DB7093", "Stroke": "1", "Cores": "#DB7093", "Opacity": "1", "Opacidade": "1" }, "geometry": { "type": "Point", "coordinates": [ -45.348789902998966, -23.747188026327137 ] } },
{ "type": "Feature", "properties": { "Id": 0, "NOME": "Pinho", "MUNICIPIO": "Ilhabela", "ORGANIZADO": "Instituto POLIS - 2012", "Color": "#DB7093", "Stroke": "1", "Cores": "#DB7093", "Opacity": "1", "Opacidade": "1" }, "geometry": { "type": "Point", "coordinates": [ -45.34701702532783, -23.739484749103653 ] } },
{ "type": "Feature", "properties": { "Id": 0, "NOME": "Armação", "MUNICIPIO": "Ilhabela", "ORGANIZADO": "Instituto POLIS - 2012", "Color": "#DB7093", "Stroke": "1", "Cores": "#DB7093", "Opacity": "1", "Opacidade": "1" }, "geometry": { "type": "Point", "coordinates": [ -45.341540954916539, -23.730176512773948 ] } },
{ "type": "Feature", "properties": { "Id": 0, "NOME": "Enseada", "MUNICIPIO": "Ubatuba", "ORGANIZADO": "Instituto POLIS - 2012", "Color": "#DB7093", "Stroke": "1", "Cores": "#DB7093", "Opacity": "1", "Opacidade": "1" }, "geometry": { "type": "Point", "coordinates": [ -45.089213324807702, -23.492832832823755 ] } },
{ "type": "Feature", "properties": { "Id": 0, "NOME": "Toninhas", "MUNICIPIO": "Ubatuba", "ORGANIZADO": "Instituto POLIS - 2012", "Color": "#DB7093", "Stroke": "1", "Cores": "#DB7093", "Opacity": "1", "Opacidade": "1" }, "geometry": { "type": "Point", "coordinates": [ -45.074957935446612, -23.486865449111306 ] } },
{ "type": "Feature", "properties": { "Id": 0, "NOME": "Grande", "MUNICIPIO": "Ubatuba", "ORGANIZADO": "Instituto POLIS - 2012", "Color": "#DB7093", "Stroke": "1", "Cores": "#DB7093", "Opacity": "1", "Opacidade": "1" }, "geometry": { "type": "Point", "coordinates": [ -45.066853336761056, -23.472529373626916 ] } },
{ "type": "Feature", "properties": { "Id": 0, "NOME": "Tenório", "MUNICIPIO": "Ubatuba", "ORGANIZADO": "Instituto POLIS - 2012", "Color": "#DB7093", "Stroke": "1", "Cores": "#DB7093", "Opacity": "1", "Opacidade": "1" }, "geometry": { "type": "Point", "coordinates": [ -45.056810354709675, -23.464765972435178 ] } },
{ "type": "Feature", "properties": { "Id": 0, "NOME": "Itaguá - nº 1724", "MUNICIPIO": "Ubatuba", "ORGANIZADO": "Instituto POLIS - 2012", "Color": "#DB7093", "Stroke": "1", "Cores": "#DB7093", "Opacity": "1", "Opacidade": "1" }, "geometry": { "type": "Point", "coordinates": [ -45.05777914729952, -23.458491955298349 ] } },
{ "type": "Feature", "properties": { "Id": 0, "NOME": "Vermelha", "MUNICIPIO": "Ubatuba", "ORGANIZADO": "Instituto POLIS - 2012", "Color": "#DB7093", "Stroke": "1", "Cores": "#DB7093", "Opacity": "1", "Opacidade": "1" }, "geometry": { "type": "Point", "coordinates": [ -45.050009130768828, -23.463274572679659 ] } },
{ "type": "Feature", "properties": { "Id": 0, "NOME": "Itaguá - nº 240", "MUNICIPIO": "Ubatuba", "ORGANIZADO": "Instituto POLIS - 2012", "Color": "#DB7093", "Stroke": "1", "Cores": "#DB7093", "Opacity": "1", "Opacidade": "1" }, "geometry": { "type": "Point", "coordinates": [ -45.066517651797675, -23.448928600875515 ] } },
{ "type": "Feature", "properties": { "Id": 0, "NOME": "Iperolg", "MUNICIPIO": "Ubatuba", "ORGANIZADO": "Instituto POLIS - 2012", "Color": "#DB7093", "Stroke": "1", "Cores": "#DB7093", "Opacity": "1", "Opacidade": "1" }, "geometry": { "type": "Point", "coordinates": [ -45.068452155691304, -23.432795451794398 ] } },
{ "type": "Feature", "properties": { "Id": 0, "NOME": "Perequê-Açu", "MUNICIPIO": "Ubatuba", "ORGANIZADO": "Instituto POLIS - 2012", "Color": "#DB7093", "Stroke": "1", "Cores": "#DB7093", "Opacity": "1", "Opacidade": "1" }, "geometry": { "type": "Point", "coordinates": [ -45.063267256905455, -23.422938986127249 ] } },
{ "type": "Feature", "properties": { "Id": 0, "NOME": "Vermelha do Norte", "MUNICIPIO": "Ubatuba", "ORGANIZADO": "Instituto POLIS - 2012", "Color": "#DB7093", "Stroke": "1", "Cores": "#DB7093", "Opacity": "1", "Opacidade": "1" }, "geometry": { "type": "Point", "coordinates": [ -45.039309238937804, -23.418465641981129 ] } },
{ "type": "Feature", "properties": { "Id": 0, "NOME": "Rio Itamambuca", "MUNICIPIO": "Ubatuba", "ORGANIZADO": "Instituto POLIS - 2012", "Color": "#DB7093", "Stroke": "1", "Cores": "#DB7093", "Opacity": "1", "Opacidade": "1" }, "geometry": { "type": "Point", "coordinates": [ -45.010496452938874, -23.40622157671983 ] } },
{ "type": "Feature", "properties": { "Id": 0, "NOME": "Itamambuca", "MUNICIPIO": "Ubatuba", "ORGANIZADO": "Instituto POLIS - 2012", "Color": "#DB7093", "Stroke": "1", "Cores": "#DB7093", "Opacity": "1", "Opacidade": "1" }, "geometry": { "type": "Point", "coordinates": [ -45.003374978708912, -23.40203941962988 ] } },
{ "type": "Feature", "properties": { "Id": 0, "NOME": "Félix", "MUNICIPIO": "Ubatuba", "ORGANIZADO": "Instituto POLIS - 2012", "Color": "#DB7093", "Stroke": "1", "Cores": "#DB7093", "Opacity": "1", "Opacidade": "1" }, "geometry": { "type": "Point", "coordinates": [ -44.971979469266969, -23.391282004082086 ] } },
{ "type": "Feature", "properties": { "Id": 0, "NOME": "Prumirim", "MUNICIPIO": "Ubatuba", "ORGANIZADO": "Instituto POLIS - 2012", "Color": "#DB7093", "Stroke": "1", "Cores": "#DB7093", "Opacity": "1", "Opacidade": "1" }, "geometry": { "type": "Point", "coordinates": [ -44.958712837596728, -23.379926611763196 ] } },
{ "type": "Feature", "properties": { "Id": 0, "NOME": "Picinguaba", "MUNICIPIO": "Ubatuba", "ORGANIZADO": "Instituto POLIS - 2012", "Color": "#DB7093", "Stroke": "1", "Cores": "#DB7093", "Opacity": "1", "Opacidade": "1" }, "geometry": { "type": "Point", "coordinates": [ -44.840260634373358, -23.381642982852409 ] } },
{ "type": "Feature", "properties": { "Id": 0, "NOME": "Pulso", "MUNICIPIO": "Ubatuba", "ORGANIZADO": "Instituto POLIS - 2012", "Color": "#DB7093", "Stroke": "1", "Cores": "#DB7093", "Opacity": "1", "Opacidade": "1" }, "geometry": { "type": "Point", "coordinates": [ -45.222115439276998, -23.552149740129387 ] } },
{ "type": "Feature", "properties": { "Id": 0, "NOME": "Maranduba", "MUNICIPIO": "Ubatuba", "ORGANIZADO": "Instituto POLIS - 2012", "Color": "#DB7093", "Stroke": "1", "Cores": "#DB7093", "Opacity": "1", "Opacidade": "1" }, "geometry": { "type": "Point", "coordinates": [ -45.227922119720368, -23.536905544696392 ] } },
{ "type": "Feature", "properties": { "Id": 0, "NOME": "Sapé", "MUNICIPIO": "Ubatuba", "ORGANIZADO": "Instituto POLIS - 2012", "Color": "#DB7093", "Stroke": "1", "Cores": "#DB7093", "Opacity": "1", "Opacidade": "1" }, "geometry": { "type": "Point", "coordinates": [ -45.222402816910929, -23.530341215968505 ] } },
{ "type": "Feature", "properties": { "Id": 0, "NOME": "Lagoinha - Camping", "MUNICIPIO": "Ubatuba", "ORGANIZADO": "Instituto POLIS - 2012", "Color": "#DB7093", "Stroke": "1", "Cores": "#DB7093", "Opacity": "1", "Opacidade": "1" }, "geometry": { "type": "Point", "coordinates": [ -45.213971595867427, -23.525871906184314 ] } },
{ "type": "Feature", "properties": { "Id": 0, "NOME": "Lagoinha -R. Eng. Velho", "MUNICIPIO": "Ubatuba", "ORGANIZADO": "Instituto POLIS - 2012", "Color": "#DB7093", "Stroke": "1", "Cores": "#DB7093", "Opacity": "1", "Opacidade": "1" }, "geometry": { "type": "Point", "coordinates": [ -45.197760126025983, -23.517827301273101 ] } },
{ "type": "Feature", "properties": { "Id": 0, "NOME": "Dura", "MUNICIPIO": "Ubatuba", "ORGANIZADO": "Instituto POLIS - 2012", "Color": "#DB7093", "Stroke": "1", "Cores": "#DB7093", "Opacity": "1", "Opacidade": "1" }, "geometry": { "type": "Point", "coordinates": [ -45.171809662726083, -23.49246491716697 ] } },
{ "type": "Feature", "properties": { "Id": 0, "NOME": "Domingos Dias", "MUNICIPIO": "Ubatuba", "ORGANIZADO": "Instituto POLIS - 2012", "Color": "#DB7093", "Stroke": "1", "Cores": "#DB7093", "Opacity": "1", "Opacidade": "1" }, "geometry": { "type": "Point", "coordinates": [ -45.143634559408376, -23.496974591687565 ] } },
{ "type": "Feature", "properties": { "Id": 0, "NOME": "Lázaro", "MUNICIPIO": "Ubatuba", "ORGANIZADO": "Instituto POLIS - 2012", "Color": "#DB7093", "Stroke": "1", "Cores": "#DB7093", "Opacity": "1", "Opacidade": "1" }, "geometry": { "type": "Point", "coordinates": [ -45.134569685308492, -23.501762585899463 ] } },
{ "type": "Feature", "properties": { "Id": 0, "NOME": "Sununga", "MUNICIPIO": "Ubatuba", "ORGANIZADO": "Instituto POLIS - 2012", "Color": "#DB7093", "Stroke": "1", "Cores": "#DB7093", "Opacity": "1", "Opacidade": "1" }, "geometry": { "type": "Point", "coordinates": [ -45.131661434693683, -23.508934918661282 ] } },
{ "type": "Feature", "properties": { "Id": 0, "NOME": "Perequê-Mirim", "MUNICIPIO": "Ubatuba", "ORGANIZADO": "Instituto POLIS - 2012", "Color": "#DB7093", "Stroke": "1", "Cores": "#DB7093", "Opacity": "1", "Opacidade": "1" }, "geometry": { "type": "Point", "coordinates": [ -45.102170383952689, -23.493721109720841 ] } },
{ "type": "Feature", "properties": { "Id": 0, "NOME": "Santa Rita", "MUNICIPIO": "Ubatuba", "ORGANIZADO": "Instituto POLIS - 2012", "Color": "#DB7093", "Stroke": "1", "Cores": "#DB7093", "Opacity": "1", "Opacidade": "1" }, "geometry": { "type": "Point", "coordinates": [ -45.105404984182243, -23.488042811648924 ] } },
{ "type": "Feature", "properties": { "Id": 0, "NOME": "Guararau", "MUNICIPIO": "Peruibe", "ORGANIZADO": "Instituto POLIS - 2012", "Color": "#DB7093", "Stroke": "1", "Cores": "#DB7093", "Opacity": "1", "Opacidade": "1" }, "geometry": { "type": "Point", "coordinates": [ -47.011985956460087, -24.369148545209448 ] } },
{ "type": "Feature", "properties": { "Id": 0, "NOME": "Peruibe (Bal. São João)", "MUNICIPIO": "Peruibe", "ORGANIZADO": "Instituto POLIS - 2012", "Color": "#DB7093", "Stroke": "1", "Cores": "#DB7093", "Opacity": "1", "Opacidade": "1" }, "geometry": { "type": "Point", "coordinates": [ -46.978670731056077, -24.309534130607929 ] } },
{ "type": "Feature", "properties": { "Id": 0, "NOME": "Prainha", "MUNICIPIO": "Peruibe", "ORGANIZADO": "Instituto POLIS - 2012", "Color": "#DB7093", "Stroke": "1", "Cores": "#DB7093", "Opacity": "1", "Opacidade": "1" }, "geometry": { "type": "Point", "coordinates": [ -47.001026134953548, -24.348798451056602 ] } },
{ "type": "Feature", "properties": { "Id": 0, "NOME": "Peruibe (av. São João)", "MUNICIPIO": "Peruibe", "ORGANIZADO": "Instituto POLIS - 2012", "Color": "#DB7093", "Stroke": "1", "Cores": "#DB7093", "Opacity": "1", "Opacidade": "1" }, "geometry": { "type": "Point", "coordinates": [ -46.995188057270248, -24.325656912625192 ] } },
{ "type": "Feature", "properties": { "Id": 0, "NOME": "Peruibe (Pq. Turístico)", "MUNICIPIO": "Peruibe", "ORGANIZADO": "Instituto POLIS - 2012", "Color": "#DB7093", "Stroke": "1", "Cores": "#DB7093", "Opacity": "1", "Opacidade": "1" }, "geometry": { "type": "Point", "coordinates": [ -46.961882371690876, -24.295849356540476 ] } },
{ "type": "Feature", "properties": { "Id": 0, "NOME": "Peruibe (R. Icaraiba)", "MUNICIPIO": "Peruibe", "ORGANIZADO": "Instituto POLIS - 2012", "Color": "#DB7093", "Stroke": "1", "Cores": "#DB7093", "Opacity": "1", "Opacidade": "1" }, "geometry": { "type": "Point", "coordinates": [ -46.943532081576329, -24.282039178374429 ] } },
{ "type": "Feature", "properties": { "Id": 0, "NOME": "Jd. Solemar", "MUNICIPIO": "Praia Grande", "ORGANIZADO": "Instituto POLIS - 2012", "Color": "#DB7093", "Stroke": "1", "Cores": "#DB7093", "Opacity": "1", "Opacidade": "1" }, "geometry": { "type": "Point", "coordinates": [ -46.589409124174651, -24.080867753176424 ] } },
{ "type": "Feature", "properties": { "Id": 0, "NOME": "Flórida", "MUNICIPIO": "Praia Grande", "ORGANIZADO": "Instituto POLIS - 2012", "Color": "#DB7093", "Stroke": "1", "Cores": "#DB7093", "Opacity": "1", "Opacidade": "1" }, "geometry": { "type": "Point", "coordinates": [ -46.569777423470441, -24.071466070151772 ] } },
{ "type": "Feature", "properties": { "Id": 0, "NOME": "Real", "MUNICIPIO": "Praia Grande", "ORGANIZADO": "Instituto POLIS - 2012", "Color": "#DB7093", "Stroke": "1", "Cores": "#DB7093", "Opacity": "1", "Opacidade": "1" }, "geometry": { "type": "Point", "coordinates": [ -46.555018012588015, -24.064544835277005 ] } },
{ "type": "Feature", "properties": { "Id": 0, "NOME": "Vila Caiçara", "MUNICIPIO": "Praia Grande", "ORGANIZADO": "Instituto POLIS - 2012", "Color": "#DB7093", "Stroke": "1", "Cores": "#DB7093", "Opacity": "1", "Opacidade": "1" }, "geometry": { "type": "Point", "coordinates": [ -46.528545168080228, -24.052674427796578 ] } },
{ "type": "Feature", "properties": { "Id": 0, "NOME": "Maracanã", "MUNICIPIO": "Praia Grande", "ORGANIZADO": "Instituto POLIS - 2012", "Color": "#DB7093", "Stroke": "1", "Cores": "#DB7093", "Opacity": "1", "Opacidade": "1" }, "geometry": { "type": "Point", "coordinates": [ -46.50678599878961, -24.043046568873145 ] } },
{ "type": "Feature", "properties": { "Id": 0, "NOME": "Vila Mirim", "MUNICIPIO": "Praia Grande", "ORGANIZADO": "Instituto POLIS - 2012", "Color": "#DB7093", "Stroke": "1", "Cores": "#DB7093", "Opacity": "1", "Opacidade": "1" }, "geometry": { "type": "Point", "coordinates": [ -46.486876010580268, -24.034464728889265 ] } },
{ "type": "Feature", "properties": { "Id": 0, "NOME": "Ocian", "MUNICIPIO": "Praia Grande", "ORGANIZADO": "Instituto POLIS - 2012", "Color": "#DB7093", "Stroke": "1", "Cores": "#DB7093", "Opacity": "1", "Opacidade": "1" }, "geometry": { "type": "Point", "coordinates": [ -46.469732883396688, -24.028209077443424 ] } },
{ "type": "Feature", "properties": { "Id": 0, "NOME": "Vila Tupy", "MUNICIPIO": "Praia Grande", "ORGANIZADO": "Instituto POLIS - 2012", "Color": "#DB7093", "Stroke": "1", "Cores": "#DB7093", "Opacity": "1", "Opacidade": "1" }, "geometry": { "type": "Point", "coordinates": [ -46.453412510214022, -24.022690281630069 ] } },
{ "type": "Feature", "properties": { "Id": 0, "NOME": "Aviação", "MUNICIPIO": "Praia Grande", "ORGANIZADO": "Instituto POLIS - 2012", "Color": "#DB7093", "Stroke": "1", "Cores": "#DB7093", "Opacity": "1", "Opacidade": "1" }, "geometry": { "type": "Point", "coordinates": [ -46.43905738209655, -24.018345887243743 ] } },
{ "type": "Feature", "properties": { "Id": 0, "NOME": "Guilhermina", "MUNICIPIO": "Praia Grande", "ORGANIZADO": "Instituto POLIS - 2012", "Color": "#DB7093", "Stroke": "1", "Cores": "#DB7093", "Opacity": "1", "Opacidade": "1" }, "geometry": { "type": "Point", "coordinates": [ -46.428785054310602, -24.015604735211543 ] } },
{ "type": "Feature", "properties": { "Id": 0, "NOME": "Boqueirão", "MUNICIPIO": "Praia Grande", "ORGANIZADO": "Instituto POLIS - 2012", "Color": "#DB7093", "Stroke": "1", "Cores": "#DB7093", "Opacity": "1", "Opacidade": "1" }, "geometry": { "type": "Point", "coordinates": [ -46.416094509144671, -24.014677220197814 ] } },
{ "type": "Feature", "properties": { "Id": 0, "NOME": "Canto do Forte", "MUNICIPIO": "Praia Grande", "ORGANIZADO": "Instituto POLIS - 2012", "Color": "#DB7093", "Stroke": "1", "Cores": "#DB7093", "Opacity": "1", "Opacidade": "1" }, "geometry": { "type": "Point", "coordinates": [ -46.402129583548877, -24.016149626008772 ] } },
{ "type": "Feature", "properties": { "Id": 0, "NOME": "Balneário Gaivota", "MUNICIPIO": "Itanhaém", "ORGANIZADO": "Instituto POLIS - 2012", "Color": "#DB7093", "Stroke": "1", "Cores": "#DB7093", "Opacity": "1", "Opacidade": "1" }, "geometry": { "type": "Point", "coordinates": [ -46.891674295643064, -24.248799448593857 ] } },
{ "type": "Feature", "properties": { "Id": 0, "NOME": "Jd. São Fernando", "MUNICIPIO": "Itanhaém", "ORGANIZADO": "Instituto POLIS - 2012", "Color": "#DB7093", "Stroke": "1", "Cores": "#DB7093", "Opacity": "1", "Opacidade": "1" }, "geometry": { "type": "Point", "coordinates": [ -46.851366531752241, -24.221679796055813 ] } },
{ "type": "Feature", "properties": { "Id": 0, "NOME": "Estância Balneária", "MUNICIPIO": "Itanhaém", "ORGANIZADO": "Instituto POLIS - 2012", "Color": "#DB7093", "Stroke": "1", "Cores": "#DB7093", "Opacity": "1", "Opacidade": "1" }, "geometry": { "type": "Point", "coordinates": [ -46.837911029943974, -24.213433873721705 ] } },
{ "type": "Feature", "properties": { "Id": 0, "NOME": "Jd. Cibratel", "MUNICIPIO": "Itanhaém", "ORGANIZADO": "Instituto POLIS - 2012", "Color": "#DB7093", "Stroke": "1", "Cores": "#DB7093", "Opacity": "1", "Opacidade": "1" }, "geometry": { "type": "Point", "coordinates": [ -46.823203142990785, -24.204914994952478 ] } },
{ "type": "Feature", "properties": { "Id": 0, "NOME": "Sonho", "MUNICIPIO": "Itanhaém", "ORGANIZADO": "Instituto POLIS - 2012", "Color": "#DB7093", "Stroke": "1", "Cores": "#DB7093", "Opacity": "1", "Opacidade": "1" }, "geometry": { "type": "Point", "coordinates": [ -46.801302050694588, -24.195906461203986 ] } },
{ "type": "Feature", "properties": { "Id": 0, "NOME": "Pescadores", "MUNICIPIO": "Itanhaém", "ORGANIZADO": "Instituto POLIS - 2012", "Color": "#DB7093", "Stroke": "1", "Cores": "#DB7093", "Opacity": "1", "Opacidade": "1" }, "geometry": { "type": "Point", "coordinates": [ -46.795319434193182, -24.192728097087958 ] } },
{ "type": "Feature", "properties": { "Id": 0, "NOME": "Centro", "MUNICIPIO": "Itanhaém", "ORGANIZADO": "Instituto POLIS - 2012", "Color": "#DB7093", "Stroke": "1", "Cores": "#DB7093", "Opacity": "1", "Opacidade": "1" }, "geometry": { "type": "Point", "coordinates": [ -46.788670858087968, -24.18659498699629 ] } },
{ "type": "Feature", "properties": { "Id": 0, "NOME": "Parque Balneário", "MUNICIPIO": "Itanhaém", "ORGANIZADO": "Instituto POLIS - 2012", "Color": "#DB7093", "Stroke": "1", "Cores": "#DB7093", "Opacity": "1", "Opacidade": "1" }, "geometry": { "type": "Point", "coordinates": [ -46.768740687881802, -24.176602754998186 ] } },
{ "type": "Feature", "properties": { "Id": 0, "NOME": "Suarão", "MUNICIPIO": "Itanhaém", "ORGANIZADO": "Instituto POLIS - 2012", "Color": "#DB7093", "Stroke": "1", "Cores": "#DB7093", "Opacity": "1", "Opacidade": "1" }, "geometry": { "type": "Point", "coordinates": [ -46.737780570076204, -24.159471248062392 ] } },
{ "type": "Feature", "properties": { "Id": 0, "NOME": "Campos Elíseos", "MUNICIPIO": "Itanhaém", "ORGANIZADO": "Instituto POLIS - 2012", "Color": "#DB7093", "Stroke": "1", "Cores": "#DB7093", "Opacity": "1", "Opacidade": "1" }, "geometry": { "type": "Point", "coordinates": [ -46.713110127686981, -24.144842728473215 ] } },
{ "type": "Feature", "properties": { "Id": 0, "NOME": "Prainha - Av. Santino Brito", "MUNICIPIO": "São Vicente", "ORGANIZADO": "Instituto POLIS - 2012", "Color": "#DB7093", "Stroke": "1", "Cores": "#DB7093", "Opacity": "1", "Opacidade": "1" }, "geometry": { "type": "Point", "coordinates": [ -46.387068652170456, -23.977551512765309 ] } },
{ "type": "Feature", "properties": { "Id": 0, "NOME": "Gonzaguinha", "MUNICIPIO": "São Vicente", "ORGANIZADO": "Instituto POLIS - 2012", "Color": "#DB7093", "Stroke": "1", "Cores": "#DB7093", "Opacity": "1", "Opacidade": "1" }, "geometry": { "type": "Point", "coordinates": [ -46.385164466390385, -23.971647938907314 ] } },
{ "type": "Feature", "properties": { "Id": 0, "NOME": "Milionários", "MUNICIPIO": "São Vicente", "ORGANIZADO": "Instituto POLIS - 2012", "Color": "#DB7093", "Stroke": "1", "Cores": "#DB7093", "Opacity": "1", "Opacidade": "1" }, "geometry": { "type": "Point", "coordinates": [ -46.373649113167431, -23.972984359734962 ] } },
{ "type": "Feature", "properties": { "Id": 0, "NOME": "Ilha Porchat", "MUNICIPIO": "São Vicente", "ORGANIZADO": "Instituto POLIS - 2012", "Color": "#DB7093", "Stroke": "1", "Cores": "#DB7093", "Opacity": "1", "Opacidade": "1" }, "geometry": { "type": "Point", "coordinates": [ -46.369896992281873, -23.974714341478489 ] } },
{ "type": "Feature", "properties": { "Id": 0, "NOME": "Itararé - Posto 2", "MUNICIPIO": "São Vicente", "ORGANIZADO": "Instituto POLIS - 2012", "Color": "#DB7093", "Stroke": "1", "Cores": "#DB7093", "Opacity": "1", "Opacidade": "1" }, "geometry": { "type": "Point", "coordinates": [ -46.366095387113418, -23.971761548388013 ] } },
{ "type": "Feature", "properties": { "Id": 0, "NOME": "Praia da Divisa", "MUNICIPIO": "São Vicente", "ORGANIZADO": "Instituto POLIS - 2012", "Color": "#DB7093", "Stroke": "1", "Cores": "#DB7093", "Opacity": "1", "Opacidade": "1" }, "geometry": { "type": "Point", "coordinates": [ -46.358532766553623, -23.969678269867163 ] } },
{ "type": "Feature", "properties": { "Id": 0, "NOME": "Agenor de Campos", "MUNICIPIO": "Mongaguá", "ORGANIZADO": "Instituto POLIS - 2012", "Color": "#DB7093", "Stroke": "1", "Cores": "#DB7093", "Opacity": "1", "Opacidade": "1" }, "geometry": { "type": "Point", "coordinates": [ -46.688734096951151, -24.131533670027824 ] } },
{ "type": "Feature", "properties": { "Id": 0, "NOME": "Itaóca", "MUNICIPIO": "Mongaguá", "ORGANIZADO": "Instituto POLIS - 2012", "Color": "#DB7093", "Stroke": "1", "Cores": "#DB7093", "Opacity": "1", "Opacidade": "1" }, "geometry": { "type": "Point", "coordinates": [ -46.671652720162029, -24.122201182685956 ] } },
{ "type": "Feature", "properties": { "Id": 0, "NOME": "Santa Eugênia", "MUNICIPIO": "Mongaguá", "ORGANIZADO": "Instituto POLIS - 2012", "Color": "#DB7093", "Stroke": "1", "Cores": "#DB7093", "Opacity": "1", "Opacidade": "1" }, "geometry": { "type": "Point", "coordinates": [ -46.656417775139133, -24.11457725330558 ] } },
{ "type": "Feature", "properties": { "Id": 0, "NOME": "Vera Cruz", "MUNICIPIO": "Mongaguá", "ORGANIZADO": "Instituto POLIS - 2012", "Color": "#DB7093", "Stroke": "1", "Cores": "#DB7093", "Opacity": "1", "Opacidade": "1" }, "geometry": { "type": "Point", "coordinates": [ -46.641936290366615, -24.107118325298611 ] } },
{ "type": "Feature", "properties": { "Id": 0, "NOME": "Central", "MUNICIPIO": "Mongaguá", "ORGANIZADO": "Instituto POLIS - 2012", "Color": "#DB7093", "Stroke": "1", "Cores": "#DB7093", "Opacity": "1", "Opacidade": "1" }, "geometry": { "type": "Point", "coordinates": [ -46.623068575881263, -24.097333185129287 ] } },
{ "type": "Feature", "properties": { "Id": 0, "NOME": "Itapoã", "MUNICIPIO": "Mongaguá", "ORGANIZADO": "Instituto POLIS - 2012", "Color": "#DB7093", "Stroke": "1", "Cores": "#DB7093", "Opacity": "1", "Opacidade": "1" }, "geometry": { "type": "Point", "coordinates": [ -46.610598954068877, -24.091354884962811 ] } },
{ "type": "Feature", "properties": { "Id": 0, "NOME": "José Menino - R. Fred. Ozanan", "MUNICIPIO": "Santos", "ORGANIZADO": "Instituto POLIS - 2012", "Color": "#DB7093", "Stroke": "1", "Cores": "#DB7093", "Opacity": "1", "Opacidade": "1" }, "geometry": { "type": "Point", "coordinates": [ -46.350043195435177, -23.969973098115819 ] } },
{ "type": "Feature", "properties": { "Id": 0, "NOME": "José Menino - R. Olavo Bilac", "MUNICIPIO": "Santos", "ORGANIZADO": "Instituto POLIS - 2012", "Color": "#DB7093", "Stroke": "1", "Cores": "#DB7093", "Opacity": "1", "Opacidade": "1" }, "geometry": { "type": "Point", "coordinates": [ -46.345712458560051, -23.969093621144488 ] } },
{ "type": "Feature", "properties": { "Id": 0, "NOME": "Gonzaga", "MUNICIPIO": "Santos", "ORGANIZADO": "Instituto POLIS - 2012", "Color": "#DB7093", "Stroke": "1", "Cores": "#DB7093", "Opacity": "1", "Opacidade": "1" }, "geometry": { "type": "Point", "coordinates": [ -46.332947003946416, -23.971279009363041 ] } },
{ "type": "Feature", "properties": { "Id": 0, "NOME": "Boqueirão", "MUNICIPIO": "Santos", "ORGANIZADO": "Instituto POLIS - 2012", "Color": "#DB7093", "Stroke": "1", "Cores": "#DB7093", "Opacity": "1", "Opacidade": "1" }, "geometry": { "type": "Point", "coordinates": [ -46.327548330279683, -23.972906144088473 ] } },
{ "type": "Feature", "properties": { "Id": 0, "NOME": "Embaré", "MUNICIPIO": "Santos", "ORGANIZADO": "Instituto POLIS - 2012", "Color": "#DB7093", "Stroke": "1", "Cores": "#DB7093", "Opacity": "1", "Opacidade": "1" }, "geometry": { "type": "Point", "coordinates": [ -46.320467486967004, -23.97605651278073 ] } },
{ "type": "Feature", "properties": { "Id": 0, "NOME": "Aparecida", "MUNICIPIO": "Santos", "ORGANIZADO": "Instituto POLIS - 2012", "Color": "#DB7093", "Stroke": "1", "Cores": "#DB7093", "Opacity": "1", "Opacidade": "1" }, "geometry": { "type": "Point", "coordinates": [ -46.312886040883086, -23.982339947057348 ] } },
{ "type": "Feature", "properties": { "Id": 0, "NOME": "Ponta da Praia", "MUNICIPIO": "Santos", "ORGANIZADO": "Instituto POLIS - 2012", "Color": "#DB7093", "Stroke": "1", "Cores": "#DB7093", "Opacity": "1", "Opacidade": "1" }, "geometry": { "type": "Point", "coordinates": [ -46.309997572157876, -23.986008452739188 ] } },
{ "type": "Feature", "properties": { "Id": 0, "NOME": "Guaiúba", "MUNICIPIO": "Guarujá", "ORGANIZADO": "Instituto POLIS - 2012", "Color": "#DB7093", "Stroke": "1", "Cores": "#DB7093", "Opacity": "1", "Opacidade": "1" }, "geometry": { "type": "Point", "coordinates": [ -46.293566611157431, -24.016858251314471 ] } },
{ "type": "Feature", "properties": { "Id": 0, "NOME": "Tombo", "MUNICIPIO": "Guarujá", "ORGANIZADO": "Instituto POLIS - 2012", "Color": "#DB7093", "Stroke": "1", "Cores": "#DB7093", "Opacity": "1", "Opacidade": "1" }, "geometry": { "type": "Point", "coordinates": [ -46.274501445108626, -24.014998225547828 ] } },
{ "type": "Feature", "properties": { "Id": 0, "NOME": "Astúrias", "MUNICIPIO": "Guarujá", "ORGANIZADO": "Instituto POLIS - 2012", "Color": "#DB7093", "Stroke": "1", "Cores": "#DB7093", "Opacity": "1", "Opacidade": "1" }, "geometry": { "type": "Point", "coordinates": [ -46.26904160083842, -24.007937455646502 ] } },
{ "type": "Feature", "properties": { "Id": 0, "NOME": "Pitangueiras - A. Puglisi", "MUNICIPIO": "Guarujá", "ORGANIZADO": "Instituto POLIS - 2012", "Color": "#DB7093", "Stroke": "1", "Cores": "#DB7093", "Opacity": "1", "Opacidade": "1" }, "geometry": { "type": "Point", "coordinates": [ -46.263400687115364, -24.000880824428489 ] } },
{ "type": "Feature", "properties": { "Id": 0, "NOME": "Enseada - Av. Sta. Maria", "MUNICIPIO": "Guarujá", "ORGANIZADO": "Instituto POLIS - 2012", "Color": "#DB7093", "Stroke": "1", "Cores": "#DB7093", "Opacity": "1", "Opacidade": "1" }, "geometry": { "type": "Point", "coordinates": [ -46.245711548496139, -23.991040186791192 ] } },
{ "type": "Feature", "properties": { "Id": 0, "NOME": "Pitangueiras - Av. Puglisi", "MUNICIPIO": "Guarujá", "ORGANIZADO": "Instituto POLIS - 2012", "Color": "#DB7093", "Stroke": "1", "Cores": "#DB7093", "Opacity": "1", "Opacidade": "1" }, "geometry": { "type": "Point", "coordinates": [ -46.256907921741814, -23.997579456658428 ] } },
{ "type": "Feature", "properties": { "Id": 0, "NOME": "Enseada - R. Chile", "MUNICIPIO": "Guarujá", "ORGANIZADO": "Instituto POLIS - 2012", "Color": "#DB7093", "Stroke": "1", "Cores": "#DB7093", "Opacity": "1", "Opacidade": "1" }, "geometry": { "type": "Point", "coordinates": [ -46.232902905775553, -23.987627249896065 ] } },
{ "type": "Feature", "properties": { "Id": 0, "NOME": "Enseada - Av. Atlântica", "MUNICIPIO": "Guarujá", "ORGANIZADO": "Instituto POLIS - 2012", "Color": "#DB7093", "Stroke": "1", "Cores": "#DB7093", "Opacity": "1", "Opacidade": "1" }, "geometry": { "type": "Point", "coordinates": [ -46.222534934224235, -23.985798692363794 ] } },
{ "type": "Feature", "properties": { "Id": 0, "NOME": "Enseada - Estr. do Pernambuco", "MUNICIPIO": "Guarujá", "ORGANIZADO": "Instituto POLIS - 2012", "Color": "#DB7093", "Stroke": "1", "Cores": "#DB7093", "Opacity": "1", "Opacidade": "1" }, "geometry": { "type": "Point", "coordinates": [ -46.206166725970249, -23.98750531648378 ] } },
{ "type": "Feature", "properties": { "Id": 0, "NOME": "Pernambuco", "MUNICIPIO": "Guarujá", "ORGANIZADO": "Instituto POLIS - 2012", "Color": "#DB7093", "Stroke": "1", "Cores": "#DB7093", "Opacity": "1", "Opacidade": "1" }, "geometry": { "type": "Point", "coordinates": [ -46.186366367670665, -23.966797262338297 ] } },
{ "type": "Feature", "properties": { "Id": 0, "NOME": "Perequê", "MUNICIPIO": "Guarujá", "ORGANIZADO": "Instituto POLIS - 2012", "Color": "#DB7093", "Stroke": "1", "Cores": "#DB7093", "Opacity": "1", "Opacidade": "1" }, "geometry": { "type": "Point", "coordinates": [ -46.181189153411488, -23.935104993506805 ] } }
]
}
